{"deke": {"ssc_id": "deke", "gloss_id": "115", "uhslc_id": "1", "station_name": "Pohnpei", "lat": 6.978, "lng": 158.197}, "tara": {"ssc_id": "tara", "gloss_id": "113", "uhslc_id": "2", "station_name": "Tarawa, Bairiki", "lat": 1.362, "lng": 172.93}, "balt": {"ssc_id": "balt", "gloss_id": "169", "uhslc_id": "3", "station_name": "Baltra", "lat": -0.435, "lng": -90.28500000000003}, "naur": {"ssc_id": "naur", "gloss_id": "114", "uhslc_id": "4", "station_name": "Nauru", "lat": -0.532, "lng": 166.91}, "marsh": {"ssc_id": "marsh", "gloss_id": "112", "uhslc_id": "5", "station_name": "Majuro", "lat": 7.107, "lng": 171.373}, "mala": {"ssc_id": "mala", "gloss_id": "120", "uhslc_id": "7", "station_name": "Malakal", "lat": 7.33, "lng": 134.463}, "solo": {"ssc_id": "solo", "gloss_id": "66", "uhslc_id": "9", "station_name": "Honiara", "lat": -9.425, "lng": 159.957}, "xmas": {"ssc_id": "xmas", "gloss_id": "146", "uhslc_id": "11", "station_name": "Christmas", "lat": 1.982, "lng": -157.472}, "kant": {"ssc_id": "kant", "gloss_id": "145", "uhslc_id": "13", "station_name": "Kanton", "lat": -2.81, "lng": -171.718}, "fren": {"ssc_id": "fren", "gloss_id": "107", "uhslc_id": "14", "station_name": "French Frigate", "lat": 23.867, "lng": -166.29}, "pape": {"ssc_id": "pape", "gloss_id": "140", "uhslc_id": "15", "station_name": "Papeete", "lat": -17.525, "lng": -149.567}, "riki": {"ssc_id": "riki", "gloss_id": "138", "uhslc_id": "16", "station_name": "Rikitea", "lat": -23.125, "lng": -134.953}, "hiva": {"ssc_id": "hiva", "gloss_id": "NaN", "uhslc_id": "17", "station_name": "Hiva Oa", "lat": -9.81, "lng": -139.027}, "viti": {"ssc_id": "viti", "gloss_id": "122", "uhslc_id": "18", "station_name": "Suva", "lat": -18.132, "lng": 178.427}, "numbo": {"ssc_id": "numbo", "gloss_id": "123", "uhslc_id": "19", "station_name": "Noumea", "lat": -22.25, "lng": 166.437}, "juan": {"ssc_id": "juan", "gloss_id": "176", "uhslc_id": "21", "station_name": "Juan Fernandez", "lat": -33.622, "lng": -78.83300000000003}, "east": {"ssc_id": "east", "gloss_id": "137", "uhslc_id": "22", "station_name": "Easter", "lat": -27.15, "lng": -109.44800000000001}, "raro": {"ssc_id": "raro", "gloss_id": "139", "uhslc_id": "23", "station_name": "Rarotonga", "lat": -21.207, "lng": -159.775}, "penr": {"ssc_id": "penr", "gloss_id": "143", "uhslc_id": "24", "station_name": "Penrhyn", "lat": -8.977, "lng": -158.053}, "fong": {"ssc_id": "fong", "gloss_id": "121", "uhslc_id": "25", "station_name": "Funafuti", "lat": -8.525, "lng": 179.195}, "saip": {"ssc_id": "saip", "gloss_id": "118", "uhslc_id": "28", "station_name": "Saipan", "lat": 15.227, "lng": 145.742}, "kapi": {"ssc_id": "kapi", "gloss_id": "117", "uhslc_id": "29", "station_name": "Kapingamarangi", "lat": 1.098, "lng": 154.777}, "sant": {"ssc_id": "sant", "gloss_id": "NaN", "uhslc_id": "30", "station_name": "Santa Cruz", "lat": -0.753, "lng": -90.31200000000001}, "nuku": {"ssc_id": "nuku", "gloss_id": "142", "uhslc_id": "31", "station_name": "Nuku Hiva", "lat": -8.93, "lng": -140.082}, "bitu": {"ssc_id": "bitu", "gloss_id": "69", "uhslc_id": "33", "station_name": "Bitung", "lat": 1.438, "lng": 125.19}, "sanf": {"ssc_id": "sanf", "gloss_id": "177", "uhslc_id": "35", "station_name": "San Felix", "lat": -26.283, "lng": -80.13299999999998}, "nkfa": {"ssc_id": "nkfa", "gloss_id": "125", "uhslc_id": "38", "station_name": "Nuku'alofa", "lat": -21.133, "lng": -175.167}, "kodi": {"ssc_id": "kodi", "gloss_id": "NaN", "uhslc_id": "39", "station_name": "Kodiak Isl., Alaska", "lat": 57.732, "lng": -152.512}, "adak": {"ssc_id": "adak", "gloss_id": "302", "uhslc_id": "40", "station_name": "Adak, Alaska", "lat": 51.858, "lng": -176.635}, "dutc": {"ssc_id": "dutc", "gloss_id": "102", "uhslc_id": "41", "station_name": "Dutch Harbor, AK", "lat": 53.88, "lng": -166.538}, "plmy": {"ssc_id": "plmy", "gloss_id": "NaN", "uhslc_id": "43", "station_name": "Palmyra Island", "lat": 5.872, "lng": -162.088}, "vanu": {"ssc_id": "vanu", "gloss_id": "348", "uhslc_id": "46", "station_name": "Port Vila", "lat": -17.767, "lng": 168.3}, "chij": {"ssc_id": "chij", "gloss_id": "103", "uhslc_id": "47", "station_name": "Chichijima", "lat": 27.1, "lng": 142.183}, "mins": {"ssc_id": "mins", "gloss_id": "104", "uhslc_id": "49", "station_name": "Minamitorishima", "lat": 24.3, "lng": 153.967}, "midx": {"ssc_id": "midx", "gloss_id": "106", "uhslc_id": "50", "station_name": "Midway", "lat": 28.217, "lng": -177.367}, "wake": {"ssc_id": "wake", "gloss_id": "105", "uhslc_id": "51", "station_name": "Wake", "lat": 19.283, "lng": 166.617}, "john": {"ssc_id": "john", "gloss_id": "109", "uhslc_id": "52", "station_name": "Johnston", "lat": 16.75, "lng": -169.517}, "guam": {"ssc_id": "guam", "gloss_id": "149", "uhslc_id": "53", "station_name": "Guam", "lat": 13.433, "lng": 144.65}, "kwaj": {"ssc_id": "kwaj", "gloss_id": "111", "uhslc_id": "55", "station_name": "Kwajalein", "lat": 8.733, "lng": 167.733}, "pago": {"ssc_id": "pago", "gloss_id": "144", "uhslc_id": "56", "station_name": "Pago Pago", "lat": -14.283, "lng": -170.683}, "hono": {"ssc_id": "hono", "gloss_id": "108", "uhslc_id": "57", "station_name": "Honolulu, Hawaii", "lat": 21.307, "lng": -157.867}, "nawi": {"ssc_id": "nawi", "gloss_id": "NaN", "uhslc_id": "58", "station_name": "Nawiliwili", "lat": 21.967, "lng": -159.35}, "kahu": {"ssc_id": "kahu", "gloss_id": "NaN", "uhslc_id": "59", "station_name": "Kahului", "lat": 20.9, "lng": -156.467}, "hilo": {"ssc_id": "hilo", "gloss_id": "287", "uhslc_id": "60", "station_name": "Hilo, Hawaii", "lat": 19.733, "lng": -155.067}, "moku": {"ssc_id": "moku", "gloss_id": "NaN", "uhslc_id": "61", "station_name": "Mokuoloe", "lat": 21.433, "lng": -157.8}, "wlgt": {"ssc_id": "wlgt", "gloss_id": "101", "uhslc_id": "71", "station_name": "Wellington", "lat": -41.283, "lng": 174.783}, "bluf": {"ssc_id": "bluf", "gloss_id": "129", "uhslc_id": "72", "station_name": "Bluff", "lat": -46.6, "lng": 168.333}, "anto": {"ssc_id": "anto", "gloss_id": "174", "uhslc_id": "80", "station_name": "Antofagasta", "lat": -23.65, "lng": -70.39999999999998}, "valp": {"ssc_id": "valp", "gloss_id": "175", "uhslc_id": "81", "station_name": "Valparaiso", "lat": -33.033, "lng": -71.63299999999998}, "acaj": {"ssc_id": "acaj", "gloss_id": "182", "uhslc_id": "82", "station_name": "Acajutla", "lat": 13.583, "lng": -89.83300000000003}, "aric": {"ssc_id": "aric", "gloss_id": "NaN", "uhslc_id": "83", "station_name": "Arica", "lat": -18.467, "lng": -70.33300000000003}, "quepo": {"ssc_id": "quepo", "gloss_id": "167", "uhslc_id": "87", "station_name": "Quepos", "lat": 9.4, "lng": -84.16699999999997}, "cald": {"ssc_id": "cald", "gloss_id": "NaN", "uhslc_id": "88", "station_name": "Caldera", "lat": -27.067, "lng": -70.83300000000003}, "lali": {"ssc_id": "lali", "gloss_id": "172", "uhslc_id": "91", "station_name": "La Libertad", "lat": -2.2, "lng": -80.91699999999997}, "tala": {"ssc_id": "tala", "gloss_id": "NaN", "uhslc_id": "92", "station_name": "Talara", "lat": -4.582, "lng": -81.28199999999998}, "call": {"ssc_id": "call", "gloss_id": "173", "uhslc_id": "93", "station_name": "Callao", "lat": -12.05, "lng": -77.14999999999998}, "mata": {"ssc_id": "mata", "gloss_id": "NaN", "uhslc_id": "94", "station_name": "Matarani", "lat": -17.002, "lng": -72.108}, "momb": {"ssc_id": "momb", "gloss_id": "8", "uhslc_id": "101", "station_name": "Mombasa", "lat": -4.07, "lng": 39.657}, "ptlu": {"ssc_id": "ptlu", "gloss_id": "18", "uhslc_id": "103", "station_name": "Port Louis", "lat": -20.155, "lng": 57.495}, "garc": {"ssc_id": "garc", "gloss_id": "26", "uhslc_id": "104", "station_name": "Diego Garcia", "lat": -7.29, "lng": 72.393}, "rodr": {"ssc_id": "rodr", "gloss_id": "19", "uhslc_id": "105", "station_name": "Rodrigues", "lat": -19.668, "lng": 63.418}, "pada": {"ssc_id": "pada", "gloss_id": "45", "uhslc_id": "107", "station_name": "Padang", "lat": -1.0, "lng": 100.367}, "male": {"ssc_id": "male", "gloss_id": "28", "uhslc_id": "108", "station_name": "Male", "lat": 4.183, "lng": 73.533}, "ganm": {"ssc_id": "ganm", "gloss_id": "27", "uhslc_id": "109", "station_name": "Gan", "lat": -0.687, "lng": 73.152}, "musc": {"ssc_id": "musc", "gloss_id": "NaN", "uhslc_id": "110", "station_name": "Muscat", "lat": 23.628, "lng": 58.565}, "sala": {"ssc_id": "sala", "gloss_id": "4", "uhslc_id": "114", "station_name": "Salalah", "lat": 16.935, "lng": 54.007}, "colo": {"ssc_id": "colo", "gloss_id": "33", "uhslc_id": "115", "station_name": "Colombo", "lat": 6.963, "lng": 79.858}, "hani": {"ssc_id": "hani", "gloss_id": "NaN", "uhslc_id": "117", "station_name": "Hanimaadhoo", "lat": 6.767, "lng": 73.167}, "laru": {"ssc_id": "laru", "gloss_id": "339", "uhslc_id": "121", "station_name": "Pt. La Rue", "lat": -4.672, "lng": 55.528}, "sibo": {"ssc_id": "sibo", "gloss_id": "NaN", "uhslc_id": "122", "station_name": "Sibolga", "lat": 1.75, "lng": 98.767}, "saba": {"ssc_id": "saba", "gloss_id": "347", "uhslc_id": "123", "station_name": "Sabang", "lat": 5.833, "lng": 95.333}, "chtt": {"ssc_id": "chtt", "gloss_id": "36", "uhslc_id": "124", "station_name": "Chittagong", "lat": 22.237, "lng": 91.827}, "prig": {"ssc_id": "prig", "gloss_id": "NaN", "uhslc_id": "125", "station_name": "Prigi", "lat": -8.283, "lng": 111.733}, "thev": {"ssc_id": "thev", "gloss_id": "308", "uhslc_id": "128", "station_name": "Thevenard", "lat": -32.15, "lng": 133.64}, "porl": {"ssc_id": "porl", "gloss_id": "55", "uhslc_id": "129", "station_name": "Portland, S.Aus.", "lat": -38.343, "lng": 141.613}, "ambo": {"ssc_id": "ambo", "gloss_id": "68", "uhslc_id": "133", "station_name": "Ambon", "lat": -3.7, "lng": 128.2}, "lank": {"ssc_id": "lank", "gloss_id": "NaN", "uhslc_id": "142", "station_name": "Langkawi", "lat": 6.432, "lng": 99.765}, "kota": {"ssc_id": "kota", "gloss_id": "42", "uhslc_id": "148", "station_name": "Ko Taphao Noi", "lat": 7.832, "lng": 98.425}, "lamu": {"ssc_id": "lamu", "gloss_id": "NaN", "uhslc_id": "149", "station_name": "Lamu", "lat": -2.272, "lng": 40.903}, "zanz": {"ssc_id": "zanz", "gloss_id": "297", "uhslc_id": "151", "station_name": "Zanzibar", "lat": -6.155, "lng": 39.19}, "dzao": {"ssc_id": "dzao", "gloss_id": "96", "uhslc_id": "155", "station_name": "Dzaoudzi", "lat": -12.78, "lng": 45.257}, "cila": {"ssc_id": "cila", "gloss_id": "291", "uhslc_id": "162", "station_name": "Cilicap", "lat": -7.752, "lng": 109.017}, "beno": {"ssc_id": "beno", "gloss_id": "49", "uhslc_id": "163", "station_name": "Benoa", "lat": -8.745, "lng": 115.21}, "reun": {"ssc_id": "reun", "gloss_id": "17", "uhslc_id": "164", "station_name": "Reunion", "lat": -20.923, "lng": 55.293}, "brom": {"ssc_id": "brom", "gloss_id": "40", "uhslc_id": "166", "station_name": "Broome", "lat": -18.0, "lng": 122.217}, "darw": {"ssc_id": "darw", "gloss_id": "62", "uhslc_id": "168", "station_name": "Darwin", "lat": -12.467, "lng": 130.85}, "chrs": {"ssc_id": "chrs", "gloss_id": "47", "uhslc_id": "170", "station_name": "Christmas", "lat": -10.417, "lng": 105.667}, "cocb": {"ssc_id": "cocb", "gloss_id": "46", "uhslc_id": "171", "station_name": "Cocos", "lat": -12.117, "lng": 96.9}, "frem": {"ssc_id": "frem", "gloss_id": "53", "uhslc_id": "175", "station_name": "Fremantle", "lat": -32.05, "lng": 115.733}, "espe": {"ssc_id": "espe", "gloss_id": "54", "uhslc_id": "176", "station_name": "Esperance", "lat": -33.867, "lng": 121.9}, "durb": {"ssc_id": "durb", "gloss_id": "13", "uhslc_id": "181", "station_name": "Durban", "lat": -29.883, "lng": 31.0}, "prte": {"ssc_id": "prte", "gloss_id": "76", "uhslc_id": "184", "station_name": "Port Elizabeth", "lat": -33.96, "lng": 25.63}, "ceut": {"ssc_id": "ceut", "gloss_id": "249", "uhslc_id": "207", "station_name": "Ceuta", "lat": 35.9, "lng": -5.317000000000007}, "casc": {"ssc_id": "casc", "gloss_id": "246", "uhslc_id": "209", "station_name": "Cascais", "lat": 38.692, "lng": -9.416999999999973}, "pdas": {"ssc_id": "pdas", "gloss_id": "245", "uhslc_id": "211", "station_name": "Ponta Delgada", "lat": 37.735, "lng": -25.673000000000002}, "pluz": {"ssc_id": "pluz", "gloss_id": "251", "uhslc_id": "217", "station_name": "Las Palmas", "lat": 28.148, "lng": -15.406999999999982}, "sitin": {"ssc_id": "sitin", "gloss_id": "268", "uhslc_id": "221", "station_name": "Simon's Town", "lat": -34.183, "lng": 18.433}, "dakar": {"ssc_id": "dakar", "gloss_id": "253", "uhslc_id": "223", "station_name": "Dakar", "lat": 14.677, "lng": -17.420000000000016}, "plma": {"ssc_id": "plma", "gloss_id": "329", "uhslc_id": "235", "station_name": "Palmeira", "lat": 16.75, "lng": -22.983000000000004}, "kwfl": {"ssc_id": "kwfl", "gloss_id": "216", "uhslc_id": "242", "station_name": "Key West, FL", "lat": 24.553, "lng": -81.80799999999999}, "sanj": {"ssc_id": "sanj", "gloss_id": "206", "uhslc_id": "245", "station_name": "San Juan, PR", "lat": 18.46, "lng": -66.11700000000002}, "neri": {"ssc_id": "neri", "gloss_id": "290", "uhslc_id": "253", "station_name": "Newport, RI", "lat": 41.505, "lng": -71.327}, "stpt": {"ssc_id": "stpt", "gloss_id": "211", "uhslc_id": "257", "station_name": "Settlement Point", "lat": 26.69, "lng": -78.983}, "bmda": {"ssc_id": "bmda", "gloss_id": "221", "uhslc_id": "259", "station_name": "Bermuda", "lat": 32.373, "lng": -64.70299999999997}, "dpnc": {"ssc_id": "dpnc", "gloss_id": "219", "uhslc_id": "260", "station_name": "Duck Pier, NC", "lat": 36.183, "lng": -75.74000000000001}, "charl": {"ssc_id": "charl", "gloss_id": "NaN", "uhslc_id": "261", "station_name": "Charleston, SC", "lat": 32.783, "lng": -79.93299999999999}, "acnj": {"ssc_id": "acnj", "gloss_id": "220", "uhslc_id": "264", "station_name": "Atlantic City", "lat": 39.355, "lng": -74.418}, "limn": {"ssc_id": "limn", "gloss_id": "NaN", "uhslc_id": "268", "station_name": "Limon", "lat": 10.0, "lng": -83.03300000000002}, "lero": {"ssc_id": "lero", "gloss_id": "NaN", "uhslc_id": "271", "station_name": "Fort de France", "lat": 14.6, "lng": -61.06700000000001}, "chur": {"ssc_id": "chur", "gloss_id": "NaN", "uhslc_id": "274", "station_name": "Churchill", "lat": 58.783, "lng": -94.19999999999999}, "hali": {"ssc_id": "hali", "gloss_id": "222", "uhslc_id": "275", "station_name": "Halifax", "lat": 44.667, "lng": -63.58300000000003}, "stjo": {"ssc_id": "stjo", "gloss_id": "223", "uhslc_id": "276", "station_name": "St. John's", "lat": 47.567, "lng": -52.716999999999985}, "fort": {"ssc_id": "fort", "gloss_id": "336", "uhslc_id": "283", "station_name": "Fortaleza", "lat": -3.717, "lng": -38.466999999999985}, "dese": {"ssc_id": "dese", "gloss_id": "190", "uhslc_id": "286", "station_name": "Puerto Deseado", "lat": -47.75, "lng": -65.91699999999997}, "stan": {"ssc_id": "stan", "gloss_id": "305", "uhslc_id": "290", "station_name": "Port Stanley", "lat": -51.75, "lng": -57.93299999999999}, "qaqo": {"ssc_id": "qaqo", "gloss_id": "344", "uhslc_id": "299", "station_name": "Qaqortoq", "lat": 60.717, "lng": -46.033000000000015}, "kola": {"ssc_id": "kola", "gloss_id": "39", "uhslc_id": "328", "station_name": "Ko Lak", "lat": 11.795, "lng": 99.817}, "quar": {"ssc_id": "quar", "gloss_id": "77", "uhslc_id": "329", "station_name": "Hong Kong", "lat": 22.3, "lng": 114.217}, "bris": {"ssc_id": "bris", "gloss_id": "58", "uhslc_id": "331", "station_name": "Brisbane", "lat": -27.367, "lng": 153.167}, "burn": {"ssc_id": "burn", "gloss_id": "59", "uhslc_id": "332", "station_name": "Bundaberg", "lat": -24.833, "lng": 152.35}, "sydn": {"ssc_id": "sydn", "gloss_id": "57", "uhslc_id": "333", "station_name": "Fort Denison", "lat": -33.85, "lng": 151.233}, "ferg": {"ssc_id": "ferg", "gloss_id": "60", "uhslc_id": "334", "station_name": "Townsville", "lat": -19.25, "lng": 146.833}, "sprg": {"ssc_id": "sprg", "gloss_id": "56", "uhslc_id": "335", "station_name": "Spring Bay", "lat": -42.55, "lng": 147.933}, "boob": {"ssc_id": "boob", "gloss_id": "61", "uhslc_id": "336", "station_name": "Booby Island", "lat": -10.6, "lng": 141.917}, "naka": {"ssc_id": "naka", "gloss_id": "NaN", "uhslc_id": "345", "station_name": "Nakano Shima", "lat": 29.833, "lng": 129.85}, "abas": {"ssc_id": "abas", "gloss_id": "327", "uhslc_id": "347", "station_name": "Abashiri", "lat": 44.017, "lng": 144.283}, "hmda": {"ssc_id": "hmda", "gloss_id": "326", "uhslc_id": "348", "station_name": "Hamada", "lat": 34.9, "lng": 132.067}, "toya": {"ssc_id": "toya", "gloss_id": "325", "uhslc_id": "349", "station_name": "Toyama", "lat": 36.767, "lng": 137.217}, "kush": {"ssc_id": "kush", "gloss_id": "89", "uhslc_id": "350", "station_name": "Kushiro", "lat": 42.967, "lng": 144.383}, "ofun": {"ssc_id": "ofun", "gloss_id": "87", "uhslc_id": "351", "station_name": "Ofunato", "lat": 39.067, "lng": 141.717}, "mera": {"ssc_id": "mera", "gloss_id": "86", "uhslc_id": "352", "station_name": "Mera", "lat": 34.917, "lng": 139.833}, "kusm": {"ssc_id": "kusm", "gloss_id": "85", "uhslc_id": "353", "station_name": "Kushimoto", "lat": 33.467, "lng": 135.783}, "abur": {"ssc_id": "abur", "gloss_id": "82", "uhslc_id": "354", "station_name": "Aburatsu", "lat": 31.567, "lng": 131.417}, "naha": {"ssc_id": "naha", "gloss_id": "81", "uhslc_id": "355", "station_name": "Naha", "lat": 26.217, "lng": 127.667}, "maisa": {"ssc_id": "maisa", "gloss_id": "NaN", "uhslc_id": "356", "station_name": "Maisaka", "lat": 34.683, "lng": 137.617}, "naze": {"ssc_id": "naze", "gloss_id": "NaN", "uhslc_id": "359", "station_name": "Naze", "lat": 28.378, "lng": 129.498}, "waka": {"ssc_id": "waka", "gloss_id": "324", "uhslc_id": "360", "station_name": "Wakkanai", "lat": 45.4, "lng": 141.683}, "nagas": {"ssc_id": "nagas", "gloss_id": "83", "uhslc_id": "362", "station_name": "Nagasaki", "lat": 32.733, "lng": 129.867}, "nish": {"ssc_id": "nish", "gloss_id": "NaN", "uhslc_id": "363", "station_name": "Nishinoomote", "lat": 30.732, "lng": 130.995}, "hako": {"ssc_id": "hako", "gloss_id": "88", "uhslc_id": "364", "station_name": "Hakodate", "lat": 41.783, "lng": 140.733}, "ishig": {"ssc_id": "ishig", "gloss_id": "NaN", "uhslc_id": "365", "station_name": "Ishigaki", "lat": 24.333, "lng": 124.15}, "mani": {"ssc_id": "mani", "gloss_id": "73", "uhslc_id": "370", "station_name": "Manila", "lat": 14.583, "lng": 120.967}, "lega": {"ssc_id": "lega", "gloss_id": "72", "uhslc_id": "371", "station_name": "Legaspi", "lat": 13.15, "lng": 123.75}, "davo": {"ssc_id": "davo", "gloss_id": "71", "uhslc_id": "372", "station_name": "Davao", "lat": 7.083, "lng": 125.633}, "quin": {"ssc_id": "quin", "gloss_id": "75", "uhslc_id": "381", "station_name": "Qui Nhon", "lat": 13.767, "lng": 109.25}, "subi": {"ssc_id": "subi", "gloss_id": "NaN", "uhslc_id": "382", "station_name": "Subic Bay", "lat": 14.765, "lng": 120.252}, "vung": {"ssc_id": "vung", "gloss_id": "NaN", "uhslc_id": "383", "station_name": "Vung Tau", "lat": 10.34, "lng": 107.072}, "lomb": {"ssc_id": "lomb", "gloss_id": "331", "uhslc_id": "400", "station_name": "Lombrum", "lat": -2.033, "lng": 147.367}, "upol": {"ssc_id": "upol", "gloss_id": "NaN", "uhslc_id": "401", "station_name": "Apia", "lat": -13.817, "lng": -171.75}, "levu": {"ssc_id": "levu", "gloss_id": "NaN", "uhslc_id": "402", "station_name": "Lautoka", "lat": -17.6, "lng": 177.433}, "lemba": {"ssc_id": "lemba", "gloss_id": "NaN", "uhslc_id": "419", "station_name": "Lembar", "lat": -8.732, "lng": 116.072}, "saum": {"ssc_id": "saum", "gloss_id": "NaN", "uhslc_id": "420", "station_name": "Saumlaki", "lat": -7.982, "lng": 131.29}, "prin": {"ssc_id": "prin", "gloss_id": "155", "uhslc_id": "540", "station_name": "Prince Rupert", "lat": 54.317, "lng": -130.333}, "tofi": {"ssc_id": "tofi", "gloss_id": "156", "uhslc_id": "542", "station_name": "Tofino", "lat": 49.15, "lng": -125.917}, "brpt": {"ssc_id": "brpt", "gloss_id": "NaN", "uhslc_id": "547", "station_name": "Barbers Point, HI", "lat": 21.322, "lng": -158.12}, "fpnt": {"ssc_id": "fpnt", "gloss_id": "158", "uhslc_id": "551", "station_name": "San Francisco, CA", "lat": 37.807, "lng": -122.465}, "kawa": {"ssc_id": "kawa", "gloss_id": "NaN", "uhslc_id": "552", "station_name": "Kawaihae", "lat": 20.033, "lng": -155.833}, "lajo": {"ssc_id": "lajo", "gloss_id": "159", "uhslc_id": "554", "station_name": "La Jolla, CA", "lat": 32.867, "lng": -117.25800000000001}, "cres": {"ssc_id": "cres", "gloss_id": "NaN", "uhslc_id": "556", "station_name": "Crescent City, CA", "lat": 41.745, "lng": -124.18299999999999}, "neah": {"ssc_id": "neah", "gloss_id": "NaN", "uhslc_id": "558", "station_name": "Neah Bay, WA", "lat": 48.368, "lng": -124.61699999999999}, "sitk": {"ssc_id": "sitk", "gloss_id": "154", "uhslc_id": "559", "station_name": "Sitka, AK", "lat": 57.052, "lng": -135.342}, "sewa": {"ssc_id": "sewa", "gloss_id": "150", "uhslc_id": "560", "station_name": "Seward, AK", "lat": 60.12, "lng": -149.427}, "sand": {"ssc_id": "sand", "gloss_id": "NaN", "uhslc_id": "569", "station_name": "San Diego", "lat": 32.715, "lng": -117.173}, "yaku": {"ssc_id": "yaku", "gloss_id": "NaN", "uhslc_id": "570", "station_name": "Yakutat, AK", "lat": 59.547, "lng": -139.735}, "ketc": {"ssc_id": "ketc", "gloss_id": "NaN", "uhslc_id": "571", "station_name": "Ketchikan, AK", "lat": 55.333, "lng": -131.625}, "sdpt": {"ssc_id": "sdpt", "gloss_id": "100", "uhslc_id": "574", "station_name": "Sand Point, AK", "lat": 55.337, "lng": -160.502}, "prud": {"ssc_id": "prud", "gloss_id": "151", "uhslc_id": "579", "station_name": "Prudhoe Bay, AK", "lat": 70.4, "lng": -148.527}, "sbea": {"ssc_id": "sbea", "gloss_id": "157", "uhslc_id": "592", "station_name": "South Beach, OR", "lat": 44.625, "lng": -124.043}, "nome": {"ssc_id": "nome", "gloss_id": "74", "uhslc_id": "595", "station_name": "Nome, AK", "lat": 64.5, "lng": -165.43}, "ushu": {"ssc_id": "ushu", "gloss_id": "181", "uhslc_id": "600", "station_name": "Ushuaia", "lat": -54.805, "lng": -68.29500000000002}, "curri": {"ssc_id": "curri", "gloss_id": "NaN", "uhslc_id": "654", "station_name": "Currimao", "lat": 18.017, "lng": 120.483}, "luba": {"ssc_id": "luba", "gloss_id": "NaN", "uhslc_id": "655", "station_name": "Lubang", "lat": 13.817, "lng": 120.202}, "pmon": {"ssc_id": "pmon", "gloss_id": "178", "uhslc_id": "684", "station_name": "Puerto Montt", "lat": -41.483, "lng": -72.96699999999998}, "tanjo": {"ssc_id": "tanjo", "gloss_id": "44", "uhslc_id": "699", "station_name": "Tanjong Pagar", "lat": 1.262, "lng": 103.853}, "vern": {"ssc_id": "vern", "gloss_id": "188", "uhslc_id": "700", "station_name": "Faraday", "lat": -65.25, "lng": -64.267}, "salv": {"ssc_id": "salv", "gloss_id": "334", "uhslc_id": "708", "station_name": "Salvador, USCGS", "lat": -12.967, "lng": -38.516999999999996}, "plat": {"ssc_id": "plat", "gloss_id": "192", "uhslc_id": "729", "station_name": "Mar del Plata", "lat": -38.035, "lng": -57.53800000000001}, "madry": {"ssc_id": "madry", "gloss_id": "191", "uhslc_id": "731", "station_name": "Puerto Madryn", "lat": -42.763, "lng": -65.02999999999997}, "sana": {"ssc_id": "sana", "gloss_id": "NaN", "uhslc_id": "737", "station_name": "San Andres", "lat": 12.568, "lng": -81.702}, "sama": {"ssc_id": "sama", "gloss_id": "NaN", "uhslc_id": "738", "station_name": "Santa Marta", "lat": 11.235, "lng": -74.22199999999998}, "elpo": {"ssc_id": "elpo", "gloss_id": "NaN", "uhslc_id": "739", "station_name": "El Porvenir", "lat": 9.558, "lng": -78.94799999999998}, "fpga": {"ssc_id": "fpga", "gloss_id": "289", "uhslc_id": "752", "station_name": "Fort Pulaski, GA", "lat": 32.033, "lng": -80.90199999999999}, "miam": {"ssc_id": "miam", "gloss_id": "218", "uhslc_id": "755", "station_name": "Virginia Key, FL", "lat": 25.732, "lng": -80.16199999999998}, "pnfl": {"ssc_id": "pnfl", "gloss_id": "288", "uhslc_id": "762", "station_name": "Pensacola, FL", "lat": 30.403, "lng": -87.21300000000002}, "gptx": {"ssc_id": "gptx", "gloss_id": "217", "uhslc_id": "775", "station_name": "Galveston, Pier 21", "lat": 29.31, "lng": -94.793}, "ptca": {"ssc_id": "ptca", "gloss_id": "NaN", "uhslc_id": "776", "station_name": "Punta Cana", "lat": 18.5, "lng": -68.38}, "ptpl": {"ssc_id": "ptpl", "gloss_id": "NaN", "uhslc_id": "777", "station_name": "Puerto Plata", "lat": 19.8, "lng": -70.69999999999999}, "rose": {"ssc_id": "rose", "gloss_id": "NaN", "uhslc_id": "786", "station_name": "Roseau", "lat": 15.3, "lng": -61.39999999999998}, "pric": {"ssc_id": "pric", "gloss_id": "NaN", "uhslc_id": "789", "station_name": "Prickley Bay", "lat": 12.0, "lng": -61.766999999999996}, "ande": {"ssc_id": "ande", "gloss_id": "322", "uhslc_id": "800", "station_name": "Andenes", "lat": 69.317, "lng": 16.15}, "honn": {"ssc_id": "honn", "gloss_id": "NaN", "uhslc_id": "801", "station_name": "Honningsvag", "lat": 70.983, "lng": 25.983}, "malo": {"ssc_id": "malo", "gloss_id": "NaN", "uhslc_id": "802", "station_name": "Maloy", "lat": 61.933, "lng": 5.117}, "rorv": {"ssc_id": "rorv", "gloss_id": "234", "uhslc_id": "803", "station_name": "Rorvik", "lat": 64.867, "lng": 11.25}, "treg": {"ssc_id": "treg", "gloss_id": "321", "uhslc_id": "804", "station_name": "Tregde", "lat": 58.0, "lng": 7.567}, "vard": {"ssc_id": "vard", "gloss_id": "323", "uhslc_id": "805", "station_name": "Vardo", "lat": 70.333, "lng": 31.1}, "noct": {"ssc_id": "noct", "gloss_id": "NaN", "uhslc_id": "806", "station_name": "Nouakchott", "lat": 18.1, "lng": -15.949999999999989}, "goto": {"ssc_id": "goto", "gloss_id": "233", "uhslc_id": "819", "station_name": "Goteborgorsh.", "lat": 57.683, "lng": 11.8}, "bres": {"ssc_id": "bres", "gloss_id": "242", "uhslc_id": "822", "station_name": "Brest", "lat": 48.383, "lng": -4.5}, "nyal": {"ssc_id": "nyal", "gloss_id": "345", "uhslc_id": "823", "station_name": "Nylesund", "lat": 78.933, "lng": 11.933}, "cuxh": {"ssc_id": "cuxh", "gloss_id": "284", "uhslc_id": "825", "station_name": "Cuxhaven", "lat": 53.867, "lng": 8.717}, "sthm": {"ssc_id": "sthm", "gloss_id": "341", "uhslc_id": "826", "station_name": "Stockholm", "lat": 59.317, "lng": 18.083}, "coru": {"ssc_id": "coru", "gloss_id": "243", "uhslc_id": "830", "station_name": "La Coruna", "lat": 43.367, "lng": -8.399999999999977}, "nain": {"ssc_id": "nain", "gloss_id": "224", "uhslc_id": "833", "station_name": "Nain", "lat": 56.55, "lng": -61.69999999999999}, "mali": {"ssc_id": "mali", "gloss_id": "239", "uhslc_id": "834", "station_name": "Malin Head", "lat": 55.367, "lng": -7.333000000000027}, "cast": {"ssc_id": "cast", "gloss_id": "330", "uhslc_id": "835", "station_name": "Castletownbere", "lat": 51.533, "lng": -9.182999999999993}, "bull": {"ssc_id": "bull", "gloss_id": "NaN", "uhslc_id": "878", "station_name": "Bullen Bay", "lat": 12.187, "lng": -69.01999999999998}, "moul": {"ssc_id": "moul", "gloss_id": "141", "uhslc_id": "906", "station_name": "Moulmein", "lat": 16.483, "lng": 97.617}, "sitt": {"ssc_id": "sitt", "gloss_id": "37", "uhslc_id": "907", "station_name": "Akyab (Sittwe)", "lat": 20.15, "lng": 92.9}}